[
  { "name": "Ben Nevis", "region": "Scotland", "classification": "Munro", "height_m": 1345, "lat": 56.7969, "lng": -5.0036 },
  { "name": "Ben Macdui", "region": "Scotland", "classification": "Munro", "height_m": 1309, "lat": 57.0703, "lng": -3.6690 },
  { "name": "Braeriach", "region": "Scotland", "classification": "Munro", "height_m": 1296, "lat": 57.0782, "lng": -3.7285 },
  { "name": "Cairn Toul", "region": "Scotland", "classification": "Munro", "height_m": 1291, "lat": 57.0543, "lng": -3.7104 },
  { "name": "Sgor an Lochain Uaine", "region": "Scotland", "classification": "Munro", "height_m": 1258, "lat": 57.0599, "lng": -3.7237 },
  { "name": "Cairn Gorm", "region": "Scotland", "classification": "Munro", "height_m": 1244, "lat": 57.1173, "lng": -3.6429 },
  { "name": "Aonach Beag", "region": "Scotland", "classification": "Munro", "height_m": 1234, "lat": 56.8013, "lng": -4.9690 },
  { "name": "Aonach Mor", "region": "Scotland", "classification": "Munro", "height_m": 1221, "lat": 56.8108, "lng": -4.9706 },
  { "name": "Carn Mor Dearg", "region": "Scotland", "classification": "Munro", "height_m": 1220, "lat": 56.8030, "lng": -5.0150 },
  { "name": "Ben Lawers", "region": "Scotland", "classification": "Munro", "height_m": 1214, "lat": 56.5447, "lng": -4.2247 },
  { "name": "Beinn a' Bhuird", "region": "Scotland", "classification": "Munro", "height_m": 1197, "lat": 57.0833, "lng": -3.4833 },
  { "name": "Ben More (Mull)", "region": "Scotland", "classification": "Munro", "height_m": 966, "lat": 56.4264, "lng": -6.0136 },
  { "name": "Ben Lomond", "region": "Scotland", "classification": "Munro", "height_m": 974, "lat": 56.1894, "lng": -4.6308 },
  { "name": "Schiehallion", "region": "Scotland", "classification": "Munro", "height_m": 1083, "lat": 56.6664, "lng": -4.1108 },
  { "name": "Buachaille Etive Mor (Stob Dearg)", "region": "Scotland", "classification": "Munro", "height_m": 1022, "lat": 56.6356, "lng": -4.9036 },
  { "name": "An Teallach (Bidein a' Ghlas Thuill)", "region": "Scotland", "classification": "Munro", "height_m": 1062, "lat": 57.7969, "lng": -5.2553 },
  { "name": "Liathach (Spidean a' Choire Leith)", "region": "Scotland", "classification": "Munro", "height_m": 1055, "lat": 57.5763, "lng": -5.4796 },
  { "name": "Slioch", "region": "Scotland", "classification": "Munro", "height_m": 981, "lat": 57.6428, "lng": -5.3408 },
  { "name": "The Cuillin - Sgurr Alasdair", "region": "Scotland", "classification": "Munro", "height_m": 992, "lat": 57.2058, "lng": -6.2228 },
  { "name": "Cul Mor", "region": "Scotland", "classification": "Munro", "height_m": 849, "lat": 58.0289, "lng": -5.1147 },

  { "name": "Snowdon (Yr Wyddfa)", "region": "Wales", "classification": "Welsh 3000", "height_m": 1085, "lat": 53.0685, "lng": -4.0760 },
  { "name": "Garnedd Ugain (Crib y Ddysgl)", "region": "Wales", "classification": "Welsh 3000", "height_m": 1065, "lat": 53.0762, "lng": -4.0653 },
  { "name": "Carnedd Llewelyn", "region": "Wales", "classification": "Welsh 3000", "height_m": 1064, "lat": 53.1147, "lng": -3.9694 },
  { "name": "Carnedd Dafydd", "region": "Wales", "classification": "Welsh 3000", "height_m": 1044, "lat": 53.1242, "lng": -3.9839 },
  { "name": "Pen yr Ole Wen", "region": "Wales", "classification": "Welsh 3000", "height_m": 978, "lat": 53.1233, "lng": -3.9994 },
  { "name": "Glyder Fawr", "region": "Wales", "classification": "Welsh 3000", "height_m": 1001, "lat": 53.0958, "lng": -4.0250 },
  { "name": "Glyder Fach", "region": "Wales", "classification": "Welsh 3000", "height_m": 994, "lat": 53.0986, "lng": -4.0144 },
  { "name": "Y Garn (Ogwen)", "region": "Wales", "classification": "Welsh 3000", "height_m": 947, "lat": 53.1108, "lng": -4.0428 },
  { "name": "Elidir Fawr", "region": "Wales", "classification": "Welsh 3000", "height_m": 924, "lat": 53.1217, "lng": -4.0972 },
  { "name": "Tryfan", "region": "Wales", "classification": "Welsh 3000", "height_m": 918, "lat": 53.0986, "lng": -4.0511 },
  { "name": "Cadair Idris (Penygadair)", "region": "Wales", "classification": "Notable", "height_m": 893, "lat": 52.6917, "lng": -3.9097 },
  { "name": "Pen y Fan", "region": "Wales", "classification": "Notable", "height_m": 886, "lat": 51.8838, "lng": -3.4369 },
  { "name": "Corn Du", "region": "Wales", "classification": "Notable", "height_m": 873, "lat": 51.8794, "lng": -3.4400 },
  { "name": "Plynlimon (Pen Pumlumon Fawr)", "region": "Wales", "classification": "Notable", "height_m": 752, "lat": 52.4625, "lng": -3.7892 },
  { "name": "Moel Siabod", "region": "Wales", "classification": "Notable", "height_m": 872, "lat": 53.0531, "lng": -3.9358 },

  { "name": "Scafell Pike", "region": "England", "classification": "Wainwright", "height_m": 978, "lat": 54.4542, "lng": -3.2100 },
  { "name": "Scafell", "region": "England", "classification": "Wainwright", "height_m": 964, "lat": 54.4456, "lng": -3.2114 },
  { "name": "Helvellyn", "region": "England", "classification": "Wainwright", "height_m": 950, "lat": 54.5269, "lng": -3.0166 },
  { "name": "Skiddaw", "region": "England", "classification": "Wainwright", "height_m": 931, "lat": 54.6444, "lng": -3.1192 },
  { "name": "Great Gable", "region": "England", "classification": "Wainwright", "height_m": 899, "lat": 54.4906, "lng": -3.2189 },
  { "name": "Pillar", "region": "England", "classification": "Wainwright", "height_m": 892, "lat": 54.4886, "lng": -3.2783 },
  { "name": "Catbells", "region": "England", "classification": "Wainwright", "height_m": 451, "lat": 54.5697, "lng": -3.1700 },
  { "name": "Blencathra", "region": "England", "classification": "Wainwright", "height_m": 868, "lat": 54.6325, "lng": -3.0136 },
  { "name": "Fairfield", "region": "England", "classification": "Wainwright", "height_m": 873, "lat": 54.5694, "lng": -3.0167 },
  { "name": "Old Man of Coniston", "region": "England", "classification": "Wainwright", "height_m": 803, "lat": 54.3697, "lng": -3.1233 },
  { "name": "Cross Fell", "region": "England", "classification": "Notable", "height_m": 893, "lat": 54.7008, "lng": -2.4853 },
  { "name": "Kinder Scout", "region": "England", "classification": "Notable", "height_m": 636, "lat": 53.3833, "lng": -1.8742 },
  { "name": "Shining Tor", "region": "England", "classification": "Notable", "height_m": 559, "lat": 53.2289, "lng": -2.0064 },
  { "name": "Whernside", "region": "England", "classification": "Yorkshire Three Peaks", "height_m": 736, "lat": 54.2150, "lng": -2.4106 },
  { "name": "Ingleborough", "region": "England", "classification": "Yorkshire Three Peaks", "height_m": 723, "lat": 54.1606, "lng": -2.4514 },
  { "name": "Pen-y-ghent", "region": "England", "classification": "Yorkshire Three Peaks", "height_m": 694, "lat": 54.1542, "lng": -2.2403 },
  { "name": "Mickle Fell", "region": "England", "classification": "Notable", "height_m": 788, "lat": 54.6228, "lng": -2.2856 },
  { "name": "Black Mountain (Dartmoor - High Willhays)", "region": "England", "classification": "Notable", "height_m": 621, "lat": 50.6906, "lng": -3.9886 },

  { "name": "Slieve Donard", "region": "Northern Ireland", "classification": "Notable", "height_m": 850, "lat": 54.1881, "lng": -5.9217 },
  { "name": "Slieve Binnian", "region": "Northern Ireland", "classification": "Notable", "height_m": 747, "lat": 54.1697, "lng": -5.9092 },
  { "name": "Slieve Bearnagh", "region": "Northern Ireland", "classification": "Notable", "height_m": 739, "lat": 54.1822, "lng": -5.9569 },
  { "name": "Slieve Commedagh", "region": "Northern Ireland", "classification": "Notable", "height_m": 765, "lat": 54.1928, "lng": -5.9106 }
]
