[
  { "name": "Ben Nevis", "region": "Scotland", "classification": "Munro", "height_m": 1345, "lat": 56.7969, "lng": -5.0036 },
  { "name": "Ben Macdui", "region": "Scotland", "classification": "Munro", "height_m": 1309, "lat": 57.0703, "lng": -3.6690 },
  { "name": "Braeriach", "region": "Scotland", "classification": "Munro", "height_m": 1296, "lat": 57.0782, "lng": -3.7285 },
  { "name": "Cairn Toul", "region": "Scotland", "classification": "Munro", "height_m": 1291, "lat": 57.0543, "lng": -3.7104 },
  { "name": "Sgor an Lochain Uaine", "region": "Scotland", "classification": "Munro", "height_m": 1258, "lat": 57.0599, "lng": -3.7237 },
  { "name": "Cairn Gorm", "region": "Scotland", "classification": "Munro", "height_m": 1244, "lat": 57.1173, "lng": -3.6429 },
  { "name": "Aonach Beag", "region": "Scotland", "classification": "Munro", "height_m": 1234, "lat": 56.8013, "lng": -4.9690 },
  { "name": "Aonach Mor", "region": "Scotland", "classification": "Munro", "height_m": 1221, "lat": 56.8108, "lng": -4.9706 },
  { "name": "Carn Mor Dearg", "region": "Scotland", "classification": "Munro", "height_m": 1220, "lat": 56.8030, "lng": -5.0150 },
  { "name": "Ben Lawers", "region": "Scotland", "classification": "Munro", "height_m": 1214, "lat": 56.5447, "lng": -4.2247 },
  { "name": "Beinn a' Bhuird", "region": "Scotland", "classification": "Munro", "height_m": 1197, "lat": 57.0833, "lng": -3.4833 },
  { "name": "Beinn a' Ghlo (Carn nan Gabhar)", "region": "Scotland", "classification": "Munro", "height_m": 1129, "lat": 56.8294, "lng": -3.7064 },
  { "name": "Lochnagar (Cac Carn Beag)", "region": "Scotland", "classification": "Munro", "height_m": 1155, "lat": 56.9603, "lng": -3.2419 },
  { "name": "Ben Lomond", "region": "Scotland", "classification": "Munro", "height_m": 974, "lat": 56.1894, "lng": -4.6308 },
  { "name": "Ben More (Mull)", "region": "Scotland", "classification": "Munro", "height_m": 966, "lat": 56.4264, "lng": -6.0136 },
  { "name": "Schiehallion", "region": "Scotland", "classification": "Munro", "height_m": 1083, "lat": 56.6664, "lng": -4.1108 },
  { "name": "Ben Vorlich (Loch Lomond)", "region": "Scotland", "classification": "Munro", "height_m": 943, "lat": 56.2733, "lng": -4.6253 },
  { "name": "Buachaille Etive Mor (Stob Dearg)", "region": "Scotland", "classification": "Munro", "height_m": 1022, "lat": 56.6356, "lng": -4.9036 },
  { "name": "Bidean nam Bian", "region": "Scotland", "classification": "Munro", "height_m": 1150, "lat": 56.6444, "lng": -5.0167 },
  { "name": "Ben Cruachan", "region": "Scotland", "classification": "Munro", "height_m": 1126, "lat": 56.4264, "lng": -5.1564 },
  { "name": "An Teallach (Bidein a' Ghlas Thuill)", "region": "Scotland", "classification": "Munro", "height_m": 1062, "lat": 57.7969, "lng": -5.2553 },
  { "name": "Liathach (Spidean a' Choire Leith)", "region": "Scotland", "classification": "Munro", "height_m": 1055, "lat": 57.5763, "lng": -5.4796 },
  { "name": "Beinn Eighe (Ruadh-stac Mor)", "region": "Scotland", "classification": "Munro", "height_m": 1010, "lat": 57.6047, "lng": -5.4419 },
  { "name": "Slioch", "region": "Scotland", "classification": "Munro", "height_m": 981, "lat": 57.6428, "lng": -5.3408 },
  { "name": "The Cuillin - Sgurr Alasdair", "region": "Scotland", "classification": "Munro", "height_m": 992, "lat": 57.2058, "lng": -6.2228 },
  { "name": "Sgurr nan Gillean", "region": "Scotland", "classification": "Munro", "height_m": 964, "lat": 57.2419, "lng": -6.2381 },
  { "name": "Cul Mor", "region": "Scotland", "classification": "Munro", "height_m": 849, "lat": 58.0289, "lng": -5.1147 },
  { "name": "Ben Wyvis (Glas Leathad Mor)", "region": "Scotland", "classification": "Munro", "height_m": 1046, "lat": 57.6878, "lng": -4.5994 },
  { "name": "Ben Alder", "region": "Scotland", "classification": "Munro", "height_m": 1148, "lat": 56.8214, "lng": -4.4644 },
  { "name": "Mount Keen", "region": "Scotland", "classification": "Munro", "height_m": 939, "lat": 56.9706, "lng": -2.9461 },

  { "name": "Scafell Pike", "region": "England", "classification": "Wainwright", "height_m": 978, "lat": 54.4542, "lng": -3.2100 },
  { "name": "Scafell", "region": "England", "classification": "Wainwright", "height_m": 964, "lat": 54.4456, "lng": -3.2114 },
  { "name": "Helvellyn", "region": "England", "classification": "Wainwright", "height_m": 950, "lat": 54.5269, "lng": -3.0166 },
  { "name": "Skiddaw", "region": "England", "classification": "Wainwright", "height_m": 931, "lat": 54.6444, "lng": -3.1192 },
  { "name": "Great Gable", "region": "England", "classification": "Wainwright", "height_m": 899, "lat": 54.4906, "lng": -3.2189 },
  { "name": "Pillar", "region": "England", "classification": "Wainwright", "height_m": 892, "lat": 54.4886, "lng": -3.2783 },
  { "name": "Catbells", "region": "England", "classification": "Wainwright", "height_m": 451, "lat": 54.5697, "lng": -3.1700 },
  { "name": "Blencathra", "region": "England", "classification": "Wainwright", "height_m": 868, "lat": 54.6325, "lng": -3.0136 },
  { "name": "Fairfield", "region": "England", "classification": "Wainwright", "height_m": 873, "lat": 54.5694, "lng": -3.0167 },
  { "name": "Old Man of Coniston", "region": "England", "classification": "Wainwright", "height_m": 803, "lat": 54.3697, "lng": -3.1233 },
  { "name": "Pike of Blisco", "region": "England", "classification": "Wainwright", "height_m": 705, "lat": 54.4475, "lng": -3.1031 },
  { "name": "High Raise", "region": "England", "classification": "Wainwright", "height_m": 762, "lat": 54.4806, "lng": -3.0961 },
  { "name": "Crinkle Crags (Long Top)", "region": "England", "classification": "Wainwright", "height_m": 859, "lat": 54.4422, "lng": -3.0808 },
  { "name": "Bowfell", "region": "England", "classification": "Wainwright", "height_m": 902, "lat": 54.4514, "lng": -3.0681 },
  { "name": "Grasmoor", "region": "England", "classification": "Wainwright", "height_m": 852, "lat": 54.6022, "lng": -3.2358 },
  { "name": "Grisedale Pike", "region": "England", "classification": "Wainwright", "height_m": 791, "lat": 54.6122, "lng": -3.2069 },
  { "name": "Robinson", "region": "England", "classification": "Wainwright", "height_m": 737, "lat": 54.5611, "lng": -3.2114 },
  { "name": "Haystacks", "region": "England", "classification": "Wainwright", "height_m": 597, "lat": 54.4972, "lng": -3.2625 },
  { "name": "Place Fell", "region": "England", "classification": "Wainwright", "height_m": 657, "lat": 54.5364, "lng": -2.9264 },
  { "name": "St Sunday Crag", "region": "England", "classification": "Wainwright", "height_m": 841, "lat": 54.5536, "lng": -2.9842 },
  { "name": "Red Pike (Buttermere)", "region": "England", "classification": "Wainwright", "height_m": 755, "lat": 54.5128, "lng": -3.2706 },
  { "name": "Dale Head", "region": "England", "classification": "Wainwright", "height_m": 753, "lat": 54.5444, "lng": -3.1939 },
  { "name": "High Stile", "region": "England", "classification": "Wainwright", "height_m": 807, "lat": 54.5147, "lng": -3.2519 },
  { "name": "Causey Pike", "region": "England", "classification": "Wainwright", "height_m": 637, "lat": 54.5872, "lng": -3.1842 },
  { "name": "Helm Crag", "region": "England", "classification": "Wainwright", "height_m": 405, "lat": 54.4708, "lng": -3.0231 },
  { "name": "Loughrigg Fell", "region": "England", "classification": "Wainwright", "height_m": 335, "lat": 54.4486, "lng": -3.0094 },
  { "name": "Latrigg", "region": "England", "classification": "Wainwright", "height_m": 368, "lat": 54.6122, "lng": -3.1364 },
  { "name": "Castle Crag", "region": "England", "classification": "Wainwright", "height_m": 290, "lat": 54.5500, "lng": -3.1486 },
  { "name": "Lonscale Fell", "region": "England", "classification": "Wainwright", "height_m": 715, "lat": 54.6336, "lng": -3.1011 },
  { "name": "Yewbarrow", "region": "England", "classification": "Wainwright", "height_m": 628, "lat": 54.4717, "lng": -3.2606 },

  { "name": "Snowdon (Yr Wyddfa)", "region": "Wales", "classification": "Nuttall", "height_m": 1085, "lat": 53.0685, "lng": -4.0760 },
  { "name": "Garnedd Ugain (Crib y Ddysgl)", "region": "Wales", "classification": "Nuttall", "height_m": 1065, "lat": 53.0762, "lng": -4.0653 },
  { "name": "Carnedd Llewelyn", "region": "Wales", "classification": "Nuttall", "height_m": 1064, "lat": 53.1147, "lng": -3.9694 },
  { "name": "Carnedd Dafydd", "region": "Wales", "classification": "Nuttall", "height_m": 1044, "lat": 53.1242, "lng": -3.9839 },
  { "name": "Pen yr Ole Wen", "region": "Wales", "classification": "Nuttall", "height_m": 978, "lat": 53.1233, "lng": -3.9994 },
  { "name": "Glyder Fawr", "region": "Wales", "classification": "Nuttall", "height_m": 1001, "lat": 53.0958, "lng": -4.0250 },
  { "name": "Glyder Fach", "region": "Wales", "classification": "Nuttall", "height_m": 994, "lat": 53.0986, "lng": -4.0144 },
  { "name": "Y Garn (Ogwen)", "region": "Wales", "classification": "Nuttall", "height_m": 947, "lat": 53.1108, "lng": -4.0428 },
  { "name": "Elidir Fawr", "region": "Wales", "classification": "Nuttall", "height_m": 924, "lat": 53.1217, "lng": -4.0972 },
  { "name": "Tryfan", "region": "Wales", "classification": "Nuttall", "height_m": 918, "lat": 53.0986, "lng": -4.0511 },
  { "name": "Foel Fras", "region": "Wales", "classification": "Nuttall", "height_m": 942, "lat": 53.1500, "lng": -3.9544 },
  { "name": "Foel Grach", "region": "Wales", "classification": "Nuttall", "height_m": 976, "lat": 53.1372, "lng": -3.9656 },
  { "name": "Yr Elen", "region": "Wales", "classification": "Nuttall", "height_m": 962, "lat": 53.1222, "lng": -3.9842 },
  { "name": "Pen Llithrig y Wrach", "region": "Wales", "classification": "Nuttall", "height_m": 799, "lat": 53.1167, "lng": -3.8939 },
  { "name": "Cadair Idris (Penygadair)", "region": "Wales", "classification": "Nuttall", "height_m": 893, "lat": 52.6917, "lng": -3.9097 },
  { "name": "Mynydd Moel", "region": "Wales", "classification": "Nuttall", "height_m": 863, "lat": 52.6983, "lng": -3.8939 },
  { "name": "Aran Fawddwy", "region": "Wales", "classification": "Nuttall", "height_m": 905, "lat": 52.7900, "lng": -3.6850 },
  { "name": "Aran Benllyn", "region": "Wales", "classification": "Nuttall", "height_m": 885, "lat": 52.8169, "lng": -3.6886 },
  { "name": "Arenig Fawr", "region": "Wales", "classification": "Nuttall", "height_m": 854, "lat": 52.9344, "lng": -3.7314 },
  { "name": "Moel Siabod", "region": "Wales", "classification": "Nuttall", "height_m": 872, "lat": 53.0531, "lng": -3.9358 },
  { "name": "Pen y Fan", "region": "Wales", "classification": "Nuttall", "height_m": 886, "lat": 51.8838, "lng": -3.4369 },
  { "name": "Corn Du", "region": "Wales", "classification": "Nuttall", "height_m": 873, "lat": 51.8794, "lng": -3.4400 },
  { "name": "Cribyn", "region": "Wales", "classification": "Nuttall", "height_m": 795, "lat": 51.8853, "lng": -3.4172 },
  { "name": "Fan Brycheiniog", "region": "Wales", "classification": "Nuttall", "height_m": 802, "lat": 51.8839, "lng": -3.6469 },
  { "name": "Waun Fach", "region": "Wales", "classification": "Nuttall", "height_m": 811, "lat": 51.9389, "lng": -3.1908 },
  { "name": "Plynlimon (Pen Pumlumon Fawr)", "region": "Wales", "classification": "Nuttall", "height_m": 752, "lat": 52.4625, "lng": -3.7892 },
  { "name": "Rhinog Fawr", "region": "Wales", "classification": "Nuttall", "height_m": 720, "lat": 52.8347, "lng": -3.9211 },
  { "name": "Y Garn (Rhinogydd)", "region": "Wales", "classification": "Nuttall", "height_m": 700, "lat": 52.8731, "lng": -3.9219 },
  { "name": "Cnicht", "region": "Wales", "classification": "Nuttall", "height_m": 689, "lat": 52.9908, "lng": -3.9831 },
  { "name": "Moelwyn Mawr", "region": "Wales", "classification": "Nuttall", "height_m": 770, "lat": 52.9928, "lng": -3.9606 },

  { "name": "Whernside", "region": "Yorkshire", "classification": "Yorkshire", "height_m": 736, "lat": 54.2150, "lng": -2.4106 },
  { "name": "Ingleborough", "region": "Yorkshire", "classification": "Yorkshire", "height_m": 723, "lat": 54.1606, "lng": -2.4514 },
  { "name": "Pen-y-ghent", "region": "Yorkshire", "classification": "Yorkshire", "height_m": 694, "lat": 54.1542, "lng": -2.2403 },
  { "name": "Great Shunner Fell", "region": "Yorkshire", "classification": "Yorkshire", "height_m": 716, "lat": 54.3367, "lng": -2.2486 },
  { "name": "Buckden Pike", "region": "Yorkshire", "classification": "Yorkshire", "height_m": 702, "lat": 54.2078, "lng": -2.0939 },
  { "name": "Great Whernside", "region": "Yorkshire", "classification": "Yorkshire", "height_m": 704, "lat": 54.1764, "lng": -1.9967 },
  { "name": "Fountains Fell", "region": "Yorkshire", "classification": "Yorkshire", "height_m": 668, "lat": 54.1417, "lng": -2.2750 },
  { "name": "Wild Boar Fell", "region": "Yorkshire", "classification": "Yorkshire", "height_m": 708, "lat": 54.3819, "lng": -2.3403 },
  { "name": "Calf Top", "region": "Yorkshire", "classification": "Yorkshire", "height_m": 609, "lat": 54.2381, "lng": -2.5392 },
  { "name": "Simon's Seat", "region": "Yorkshire", "classification": "Yorkshire", "height_m": 485, "lat": 54.0667, "lng": -1.8722 },

  { "name": "Brown Clee Hill (Abdon Burf)", "region": "Shropshire", "classification": "Shropshire", "height_m": 540, "lat": 52.4625, "lng": -2.5917 },
  { "name": "Titterstone Clee Hill", "region": "Shropshire", "classification": "Shropshire", "height_m": 533, "lat": 52.3989, "lng": -2.5928 },
  { "name": "The Long Mynd (Pole Bank)", "region": "Shropshire", "classification": "Shropshire", "height_m": 516, "lat": 52.5161, "lng": -2.8400 },
  { "name": "Caer Caradoc Hill", "region": "Shropshire", "classification": "Shropshire", "height_m": 459, "lat": 52.5400, "lng": -2.7700 },
  { "name": "Stiperstones (Manstone Rock)", "region": "Shropshire", "classification": "Shropshire", "height_m": 536, "lat": 52.5708, "lng": -2.9389 }
]
